[
  {
    "id": 1248991,
    "name": "Colombo",
    "country": "LK",
    "coord": {
      "lon": 79.848518,
      "lat": 6.927079
    }
  },
  {
    "id": 1850147,
    "name": "Tokyo",
    "country": "JP",
    "coord": {
      "lon": 139.691711,
      "lat": 35.689499
    }
  },
  {
    "id": 2644210,
    "name": "Liverpool",
    "country": "GB",
    "coord": {
      "lon": -2.97794,
      "lat": 53.41058
    }
  },
  {
    "id": 2988507,
    "name": "Paris",
    "country": "FR",
    "coord": {
      "lon": 2.3488,
      "lat": 48.853401
    }
  },
  {
    "id": 2147714,
    "name": "Sydney",
    "country": "AU",
    "coord": {
      "lon": 151.207321,
      "lat": -33.867851
    }
  },
  {
    "id": 4930956,
    "name": "Boston",
    "country": "US",
    "coord": {
      "lon": -71.059769,
      "lat": 42.358431
    }
  },
  {
    "id": 1796236,
    "name": "Shanghai",
    "country": "CN",
    "coord": {
      "lon": 121.4581,
      "lat": 31.2222
    }
  },
  {
    "id": 3143244,
    "name": "Oslo",
    "country": "NO",
    "coord": {
      "lon": 10.7461,
      "lat": 59.9127
    }
  }
]